小区名称,居室数量,建筑面积,网址,价格,市/县,行政区,地址,经度,纬度
K2・海棠湾 ,1居|2居|3居|4居|5居,265平米,http://k2haitangwan0532.fang.com/,21000元/O,青岛市,黄岛,黄岛海王路1699号（维客购物中心南侧）,120.022079,35.872676
鑫江水青花都 ,2居|3居,80~130平米,http://shuiqinghuaduxj.fang.com/,17000元/O,青岛市,城阳,城阳黑龙江中路与王沙路交汇处,120.43291,36.2087
蔚蓝创新天地 ,2居|3居|4居,137~162平米,http://weilanchuangxintiandi.fang.com/,18000元/O,青岛市,城阳,城阳荟城路506号（韩国领事馆西临）,120.4356,36.312518
半岛蓝湾 ,2居|3居,,http://bandaolanwan.fang.com/,10000元/O,青岛市,胶州,胶州市新城区青年水库西侧（青岛工学院正对面）,120.03893,36.245021
鲁商蓝岸新城 ,2居|3居,,http://lananxinchengls.fang.com/,12000元/O,青岛市,城阳,城阳新业路123号（岙东路与新业路交界处以西）,120.249935,36.249102
鸿锦凤凰新城 ,2居|3居,89~134平米,http://fenghuangxinchenghj.fang.com/,价格待定,青岛市,胶州,胶州市香港路与广州路交汇处路西,120.011758,36.250395
海宸御苑 ,海宸御苑住宅项目在建中,,http://haichenyuyuan.fang.com/,价格待定,青岛市,黄岛,黄岛黄岛江山路以东，研发路以北,120.161328,35.952382
海都・悦府 ,4居,137~157平米,http://haiduyuefu.fang.com/,价格待定,青岛市,城阳,城阳177号23#营销中心,120.403546,36.305833
鲁商蓝岸公馆 ,鲁商蓝岸公馆建面31-70平公寓预计春节后开盘,,http://lanangongguanls.fang.com/,价格待定,青岛市,市南,市南宁夏路与南京路交汇处,120.385246,36.08275
和达B园 ,2居|3居,58~132平米,http://hedajunyuan.fang.com/,价格待定,青岛市,市北,市北青岛市市北区金华支路6号,120.365825,36.13231
新城・樾府 ,城・樾府项目分三期开发 开盘时间待定,,http://xinchengyuefu0532.fang.com/,价格待定,青岛市,胶州,胶州市尚德大道与淮河路交汇处,120.083535,36.172053
沽河风情・求阙居 ,3居,94~123平米,http://guhefengqing.fang.com/1/,价格待定,青岛市,城阳,城阳青岛市城阳区红岛新区（高新区）龙海路766号,120.159362,36.256627
佳兆业水岸新都 ,2居|3居|4居,108~131平米,http://shuianxindujzy0532.fang.com/,13500元/O,青岛市,城阳,城阳王沙路358号（中经二路东侧、白沙河南侧）,120.454271,36.266207
大溪谷 ,2居|3居|4居|5居以上,74~500平米,http://daxigu.fang.com/,14000元/O,青岛市,黄岛,黄岛高山路1997号（小珠山大溪谷景区内）,120.06844,35.946463
新城香溢紫郡二期 ,2居|3居|4居,95~140平米,http://xiangyizijunxc0532.fang.com/,24000元/O,青岛市,李沧,李沧金水路与汉川路交汇处（宾川路西侧）,120.471245,36.178817
中铁青岛世界博览城 ,1居|2居|3居|4居|5居,30~170平米,http://guojibolanchengzt.fang.com/,13000元/O,青岛市,黄岛,黄岛滨海大道与明富大道交汇处（海之韵南侧）,120.017666,35.833323
天泰书院壹号 ,3居,109~135平米,http://shuyuanyihaott.fang.com/,24000元/O,青岛市,李沧,李沧书院路与青峰路交汇处.,120.418848,36.154676
青岛中南世纪城 ,1居|2居|3居|4居,93~135平米,http://shijichengzn0532.fang.com/,价格待定,青岛市,李沧,李沧重庆中路903号（唐山路以北、十梅庵路以南、规划公园以西）,120.3993,36.204196
山国际 ,2居|3居|4居|5居以上,90~229平米,http://lishanguoji0532.fang.com/villa/,价格待定,青岛市,即墨,即墨鹤山东路518号,120.530805,36.39882
国信雍翠湾 ,2居|3居,,http://yongcuiwangx.fang.com/,价格待定,青岛市,即墨,即墨文化路与泰山二路交汇处,120.487247,36.380255
中交中央公元 ,2居|3居,,http://zhongyanggongyuanzj.fang.com/,价格待定,青岛市,即墨,即墨文化路180号（即墨一中东50米）,120.462039,36.381059
中建锦绣城 ,2居|3居|4居|5居,,http://jiuxiuchengzj.fang.com/,价格待定,青岛市,黄岛,黄岛灵山湾路与凤凰山路交汇处（原胶南六中西侧）,120.030741,35.881167
鑫江玫瑰园 ,2居|3居,115~118平米,http://meiguiyuanxj.fang.com/,13000元/O,青岛市,城阳,城阳银河路666号（沿黑龙江路东行800米）,120.423972,36.273554
新城玺樾 ,3居|4居,95~170平米,http://jiaozhoushaohaixc.fang.com/,价格待定,青岛市,胶州,胶州市少海北路18号,120.103503,36.276219
保利叁仟栋 ,保利叁仟栋预计2018年5.6月份开盘,,http://sanqiandongbl.fang.com/,价格待定,青岛市,胶州,胶州市少海北路,120.103503,36.276219
卫城・花好月圆 ,2居|3居,73~115平米,http://huahaoyueyuanwc.fang.com/,13500元/O,青岛市,黄岛,黄岛青岛黄岛区灵海路229号路,120.122126,35.927013
保利观堂 ,3居|4居,,http://baoliguantang0532.fang.com/,价格待定,青岛市,城阳,城阳S209省道东郭庄环城路小学西侧,120.41718,36.339015
中南・漫悦湾 ,3居,93~113平米,http://manyuewanzn0532.fang.com/,价格待定,青岛市,黄岛,黄岛前湾港路267号（开拓路与前湾港路交叉口）,120.153167,36.004407
永新公馆 ,3居|4居,224~313平米,http://yongxingongguan.fang.com/,价格待定,青岛市,市南,市南清远路9号,120.392304,36.060791
水发润城汀园 ,水发润城汀园现房源售罄后期加推预计4月份开盘,,http://tingyuansfrc.fang.com/,价格待定,青岛市,即墨,即墨通济街道办事处城马路66号,120.373853,36.327992
旭辉银盛泰星悦城 ,银盛泰星悦城项目前期推出房源已剩不多,,http://xingyuechengxhyst.fang.com/,价格待定,青岛市,黄岛,黄岛珠山南路与204国道交汇处,120.003557,35.851283
红星・天铂 ,3居|4居,114~172平米,http://hongxingtianbo0532.fang.com/,12500元/O,青岛市,黄岛,黄岛西海岸路与易通路交汇处,120.036681,35.870923
万达・东方影都 ,1居|2居|3居|4居,40~144平米,http://dongfangyingduwdqd.fang.com/,14000元/O,青岛市,黄岛,黄岛滨海大道1777号,120.111305,35.910519
金域府邸 ,1居|2居|3居,62~124平米,http://jinyufudi.fang.com/,25000元/O,青岛市,市北,市北金华路56号、60号（青岛葡萄酒厂对面）,120.36409,36.12598
颐惠园 ,2居|3居|4居,140~237平米,http://yihuiyuan0532.fang.com/,50000元/O,青岛市,崂山,崂山海尔路与苗岭路交汇处,120.459587,36.098772
福瀛天麓湖・瑞府 ,1居|2居|3居|4居,139~157平米,http://tianluhufy.fang.com/,24600元/O,青岛市,黄岛,黄岛长江路韶山路568号（韶山路与东江路交汇处）,120.212308,35.962761
华润中心悦府 ,1居|2居|3居|4居,110~230平米,http://yuefuhrzx.fang.com/,38000元/O,青岛市,市南,市南山东路8号（青岛市政府西侧）,120.378769,36.067129
星雨华府 ,1居|2居|3居|4居|5居|5居以上,78~94平米,http://xingyuhuafu0532.fang.com/,7000元/O,青岛市,城阳,城阳和源路216号,120.32659,36.279925
三盛国际海岸 ,2居|3居|4居|5居|5居以上,84~389平米,http://guojihaianssh.fang.com/,21000元/O,青岛市,即墨,即墨岭海西路36号(国际博览中心北)。,120.70927,36.44001
鲁德海德堡 ,3居|4居|5居,176~350平米,http://ludehaidebao.fang.com/,43000元/O,青岛市,崂山,崂山松岭路66号（香港东路，石老人旁）,120.480637,36.109576
金秋泰和郡 ,1居|2居|3居|4居|5居,87~124平米,http://taihejunjq0532.fang.com/,14000元/O,青岛市,城阳,城阳玉虹路16号（云头崮社区）,120.440811,36.217534
蓝城・春风里 ,1居|2居|3居,93~113平米,http://chunfenglilc.fang.com/,23000元/O,青岛市,李沧,李沧与邢台路交汇处（文昌阁公园以北）,120.415485,36.20538
金隅和府 ,2居|3居|4居,87~139平米,http://jinyuhefu.fang.com/,27000元/O,青岛市,市北,市北镇江路12号（延吉路与镇江路交会处）,120.36693,36.086699
海尔地产世纪公馆 ,2居|3居|4居,125平米,http://shijigongguanhe.fang.com/,25000元/O,青岛市,市北,市北合肥路与蚌埠路交汇处,120.390874,36.119614
中欧国际城 ,1居|2居|3居|4居|5居,44~143平米,http://zhongouguojicheng.fang.com/,10000元/O,青岛市,城阳,城阳火炬路57号（火炬路和祥源路交汇）,120.302399,36.263983
万科魅力新城 ,2居|3居,125~140平米,http://meilixinchengwk.fang.com/,22000元/O,青岛市,城阳,城阳吉阳路297号（世纪公园东）,120.402403,36.284448
山川融园 ,4居|5居,269~390平米,http://shanchuanrongyuan.fang.com/,价格待定,青岛市,黄岛,黄岛山川路1号,120.017996,35.77708
万科朗润园 ,2居|3居,,http://langrunyuanwk0532.fang.com/,12000元/O,青岛市,即墨,即墨埠惜路与辽河一路交汇处（实验高中北）,120.512807,36.412809
银盛泰书香嘉苑 ,2居|3居,128平米,http://shuxiangjiayuanyst.fang.com/,16000元/O,青岛市,城阳,城阳硕阳路77号,120.439734,36.328746
绿城岘山花城 ,3居|4居,130~206平米,http://xianshanhuachenglc.fang.com/,12000元/O,青岛市,即墨,即墨长江二路188号,120.393447,36.374769
万科・如园 ,2居|3居|4居,109~135平米,http://wankeruyuan0532.fang.com/,24000元/O,青岛市,李沧,李沧东川路与金水路交汇处,120.483773,36.178732
建邦听海墅 ,4居,323平米,http://tinghaishujb.fang.com/,30000元/O,青岛市,黄岛,黄岛黄岛区东岳东路888号（灵山卫公交枢纽对面）,120.124439,35.920979
海信盟旺世家 ,3居|4居,132平米,http://mengwangshijiahx.fang.com/,10000元/O,青岛市,即墨,即墨长广路与盟旺路交界处,120.439517,36.852638
海尔地产・云玺 ,3居|4居,142平米,http://yunxihe.fang.com/,34000元/O,青岛市,崂山,崂山青岛市崂山区海尔路1号,120.427842,36.13637
中海御湖 ,3居|4居,108~142平米,http://zhonghaiyuhu.fang.com/,14000元/O,青岛市,胶州,胶州市少海新城少海南路3号,120.083079,36.250497
利盛达御景苑 ,2居|3居,86~90平米,http://yujingyuanlsd.fang.com/,5900元/O,青岛市,胶州,胶州市胶莱镇中心路68号,120.071024,36.442726
康大观山樾 ,3居|4居,113~143平米,http://guanshanyuekd.fang.com/,20000元/O,青岛市,黄岛,黄岛小珠山古月山庄旁,120.113448,35.956232
鲁昊・棠琳湾 ,3居|4居|5居,98~146平米,http://tanglinwanluhao.fang.com/,18000元/O,青岛市,城阳,城阳青岛市城阳区白沙河南、环胶州湾高速北、白沙河入海口,120.359457,36.239924
万德麒麟公馆 ,3居|4居,104~127平米,http://qilingongguanwd.fang.com/,15000元/O,青岛市,黄岛,黄岛圣元路与月牙河路交汇处,120.017151,35.840229
莱茵公馆 ,3居|4居,140~165平米,http://laiyingongguan.fang.com/,13000元/O,青岛市,黄岛,黄岛团结路北侧、昆仑山路东侧（中德生态园内）,120.146764,35.978064
鲁能公馆 ,3居|4居,139~156平米,http://lunenggongguan0532.fang.com/,16000元/O,青岛市,即墨,即墨市民大厅西500米（盟旺路以北）,120.441012,36.391892
保利天汇 ,3居,111~175平米,http://baolitianhui0532.fang.com/,26500元/O,青岛市,市北,市北宁乡路以东、长沙路以南、台柳路以西,120.396957,36.125434
花伴里二期 ,3居,96~120平米,http://huabanlihx0532.fang.com/,19600元/O,青岛市,黄岛,黄岛嘉陵江东路257号,120.232005,35.963942
天峰首府 ,3居,108~125平米,http://tianfengshoufu.fang.com/,14000元/O,青岛市,城阳,城阳城阳区正阳东路与王沙路交汇处南300米,120.475771,36.30381
欧美榭香里 ,2居|3居,89~136平米,http://oumeixiexiangli.fang.com/,价格待定,青岛市,黄岛,黄岛广州路177号（墨香路西侧）,120.049038,35.900004
世茂公园美地 ,1居|2居|3居|4居,92~180平米,http://gongyuanmeidism.fang.com/,价格待定,青岛市,城阳,城阳华贯路603号、666号（祥茂河湿地公园东）,120.297001,36.281046
中交阳光屿岸 ,2居|3居,,http://720935.fang.com/,价格待定,青岛市,城阳,城阳夏庄白沙河流域银河路360号（成康路与银河路交界处以东）,120.445043,36.280651
融创都会中心 ,1居|2居|3居|4居|5居|5居以上,105~163平米,http://dongfanglongyujkc.fang.com/,价格待定,青岛市,李沧,李沧黑龙江中路与富锦路交汇处东100米,120.431069,36.189242
春阳丽景 ,2居|3居,82~89平米,http://huaqiaoxingfuli.fang.com/,价格待定,青岛市,即墨,即墨黑龙江路与春阳路交叉口西约50米,120.390471,36.314875
鲁商泰晤士小镇 ,2居|3居,83~102平米,http://taiwushixiaozhenls.fang.com/,价格待定,青岛市,城阳,城阳城阳区正阳东路与百福路交汇处,120.490629,36.304619
金科阳光美镇 ,3居|5居以上,,http://yangguangmeizhenjk.fang.com/,价格待定,青岛市,城阳,城阳正阳西路与双拥路交汇口（海都生态园西侧）,120.265648,36.288494
绿地海月湾 ,3居,100~144平米,http://haiyuewanld.fang.com/,价格待定,青岛市,城阳,城阳聚贤桥路55号,120.270072,36.265876
海达如意金岸 ,2居|3居|4居,115~162平米,http://ruyijinanhd.fang.com/,价格待定,青岛市,胶州,胶州市经济技术开发区尚德大道与黄河路交汇处,120.083231,36.17644
万科金域华府 ,3居,95~140平米,http://jinyuhuafuwk0532.fang.com/,价格待定,青岛市,城阳,城阳正阳路、国学公园北,120.442423,36.306045
海信君逸 ,2居|3居|4居,143~199平米,http://haixinjunyi.fang.com/,50000元/O,青岛市,崂山,崂山海游路1号,120.434866,36.070763
海信积米湾 ,3居,120~136平米,http://jimiwanhx.fang.com/,价格待定,青岛市,黄岛,黄岛积米崖港区西侧,120.16276,35.925035
康大叶语东山 ,3居|4居,,http://yeyudongshankd.fang.com/,价格待定,青岛市,黄岛,黄岛长江西路与海尔大道交汇处,120.15551,35.93947
水岸华庭 ,2居|3居,90~134平米,http://shuianhuating0532.fang.com/,7500元/O,青岛市,胶州,胶州市胶祥路88号,120.097904,36.304385
剑桥小镇 ,3居,91~129平米,http://jianqiaoxiaozhen0532.fang.com/,价格待定,青岛市,黄岛,黄岛墨香路717号（黄岛一中北）,120.051203,35.903972
三木・家天下・文澜府 ,2居|3居|4居,95~130平米,http://jiatianxiasm.fang.com/,价格待定,青岛市,胶州,胶州市经济开发区双积公路与辽河路交汇,120.094535,36.180982
青铁华润城 ,3居|4居,99~160平米,http://huarunchengqd.fang.com/,价格待定,青岛市,崂山,崂山辽阳东路与深圳路交汇处,120.449591,36.117083
海尔地产B玺 ,海尔地产B玺前期房源已售罄,,http://junxihedc.fang.com/,价格待定,青岛市,城阳,城阳火炬路与新悦路交汇处,120.25721,36.245975
海信珠山小镇 ,2居|3居|4居,85~120平米,http://zhushanxiaozhenhx.fang.com/,价格待定,青岛市,黄岛,黄岛山东科技大学北门西300米，渭河路与洞庭山路交汇处,120.121011,36.001862
天一赫廷 ,3居|4居,,http://tianyiheting.fang.com/,价格待定,青岛市,黄岛,黄岛三沙路与映山红路交汇处（港湾学院西侧）,120.022786,35.811067
绿地望海领御 ,3居|4居,100~195平米,http://wanghailingyuld.fang.com/,18500元/O,青岛市,黄岛,黄岛滨海大道嘉陵江路与滨海大道交汇处往东500米,120.257604,35.974113
华融蓝海洋观海 ,2居|3居,86~122平米,http://lanhaiyangguanhaihr.fang.com/,价格待定,青岛市,黄岛,黄岛长江东路以南，滨海大道以北,120.158713,35.93031
瑜公馆 ,瑜公馆价格待定,,http://newhouse.qd.fang.com/house/2411121731.htm,价格待定,青岛市,黄岛,黄岛平江路与峨眉山路交汇处西200米，光谷软件园南门对面,120.160122,35.950956
永合萃英花园 ,2居|3居,82~108平米,http://cuiyinghuayuanyh.fang.com/,价格待定,青岛市,即墨,即墨天山一路与长江二路交叉口（南行200米）,120.392922,36.374765
银盛泰・博观星海 ,银盛泰・博观星海均价为：12000元/平方米,,http://boguanxinghaiyst.fang.com/,12000元/O,青岛市,黄岛,黄岛灵山湾路与东岳中路交会处,120.057643,35.892199
天泰桃花源 ,天泰桃花源一期预计5月份开盘具体时间待定,,http://taohuayuantt.fang.com/,价格待定,青岛市,即墨,即墨麒麟路68号,120.661142,36.460437
兴源巴黎城 ,2居|3居,112~134平米,http://balichengxy.fang.com/,价格待定,青岛市,胶州,胶州市温州路、扬州支路、龙州路交汇处,120.032974,36.281291
绿城紫薇广场 ,1居|2居|3居|4居,85平米,http://ziweiguangchang.fang.com/,,青岛市,胶州,胶州市北京东路299号（福州南路以东、温州路以西、云溪河以南）,120.038134,36.265641
汀town ,汀town商铺户型建面15-50O,,http://tingtown.fang.com/,30000元/O,青岛市,市南,市南香港中路93号,120.409247,36.066655
爱家公寓 ,1居,28平米,http://aijiagongyu0532.fang.com/,20000元/O,青岛市,市北,市北徐州路180号。,120.378587,36.080702
南山海悦 ,1居,57~103平米,http://nanshanlanyu.fang.com/,15500元/O,青岛市,即墨,即墨凤岛路与滨海大道交汇处,120.717473,36.420594
天和美寓 ,1居|2居,70~87平米,http://tianhemeiyu.fang.com/,14000元/O,青岛市,黄岛,黄岛长江西路灵山卫派出所向北50米,120.151472,35.932732
国家（青岛）通信产业园利群项目 ,国家（青岛）通信产业园利群项目开盘时间和价格待定,,http://gjqdtxcyylq.fang.com/,价格待定,青岛市,崂山,崂山株洲路以南、软件园二路以北（滨海大道旁）。,120.444881,36.137128
海信创业中心 ,海信创业中心推出户型92平写字楼,,http://chuangyezhongxinhx.fang.com/,3.8元/平方米.天,青岛市,市南,市南山东路17号（市南法院对面）,120.377395,36.076606
梦时代8号 ,梦时代8号在售价格为：14500元/平方米,,http://mengshidai.fang.com/,14500元/O,青岛市,黄岛,黄岛滨海大道8号,120.04996,35.875681
山钢东部新天地 ,山钢东部新天地预计2018年春节后开盘,,http://dongbuxintiandisg.fang.com/,价格待定,青岛市,崂山,崂山辽阳东路与同安路交汇处,120.462744,36.122571
同安路九号 ,同安图九号预计4月推出商墅,,http://tonganlu9hao.fang.com/,价格待定,青岛市,市北,市北市北区福州路与同安路交汇处北50米（山东留学生大厦旁）,120.399607,36.094171
100福国际山庄碧桂湾 ,4居,,http://biguiwan.fang.com/villa/,12000元/O,青岛市,城阳,城阳惜福镇铁骑山路6号(正阳路与铁骑山路交汇处附近),120.525772,36.314756
金石・东方至尊 ,1居|2居|3居|4居|5居,68~181平米,http://dongfangzhizun.fang.com/,15000元/O,青岛市,黄岛,黄岛西海岸滨海大道1201号（新黄岛区政府东侧）,120.05017,35.872609
依泉美庐 ,5居以上,363~550平米,http://yiquanmeilu.fang.com/villa/,23000元/O,青岛市,即墨,即墨海泉路66号（天泰蓝泉斜对面）。,120.662146,36.437021
丽晶御筑 ,1居,41~84平米,http://xianggangzhidi.fang.com/,35000元/O,青岛市,市南,市南香港中路93号（丽晶大酒店对面）,120.409247,36.066655
翡翠城 ,1居|2居|3居|4居|5居|5居以上,46~257平米,http://feicuicheng0532.fang.com/,5500元/O,青岛市,莱西,莱西市烟台路153号（烟台路与济南中路交汇处）,120.520801,36.894299
福麟三栋 ,2居|3居,87平米,http://fulinhaijingliyuan.fang.com/,13500元/O,青岛市,黄岛,黄岛海西东十七路17号(西海岸两个卫星城开发区与胶南交界处),120.12196,35.921623
恒大金沙滩 ,1居|3居|4居,28平米,http://jinshatanhd.fang.com/,18600元/O,青岛市,黄岛,黄岛罗浮山路228号(滨海大道南),120.215843,35.95078
青岛印象金沙滩 ,1居|2居|3居|4居|5居以上,75平米,http://jinshatanqdyx.fang.com/,价格待定,青岛市,黄岛,黄岛嘉陵江东路1号（凤凰岛金沙滩对面）,120.237716,35.958553
奥润澜庭 ,2居|3居,126平米,http://xinhaiguojichengar.fang.com/,16000元/O,青岛市,黄岛,黄岛黄岛滨海大道2703号（青岛国际游艇会展中心斜对面）,120.07552,35.889206
青岛印象・湾 ,2居|3居,72~115平米,http://yinxiangwanqd.fang.com/,17000元/O,青岛市,李沧,李沧文昌路697号（十梅庵风景区旁）,120.417547,36.21755
青啤颐山源墅 ,3居|4居,,http://yishanyuanshu.fang.com/,60000元/O,青岛市,崂山,崂山青大三路九号（亚麦山城东南侧）,120.436756,36.076832
绿城深蓝中心 ,3居|5居,260~460平米,http://shenlanzhongxin.fang.com/,85000元/O,青岛市,市南,市南香港西路南、东海二路东（延安三路与香港中路交汇处）,120.371624,36.058961
天一仁和之城 ,2居|3居|4居,83~237平米,http://aiweila.fang.com/villa/,11000元/O,青岛市,胶州,胶州市温州路1778号（新城区青年水库南岸，国际社区内）,120.050966,36.234177
明德小镇 ,1居|2居|3居|4居|5居|5居以上,38~458平米,http://mingdexiaozhen.fang.com/,价格待定,青岛市,城阳,城阳王沙路155号,120.455542,36.25549
中国铁建岸芷汀兰 ,2居|3居,80~134平米,http://anzhitinglanzgtj.fang.com/,价格待定,青岛市,莱西,莱西市烟台南路115号（烟台南路与青岛南路交汇处）,120.526853,36.843957
万德德盛苑 ,1居|2居|3居,88~130平米,http://deshengyuanwd.fang.com/,9200元/O,青岛市,黄岛,黄岛珠山南路11号（珠山南路西侧）,119.983533,35.834683
海尔地产原乡小镇 ,3居|4居|5居|5居以上,229~311平米,http://yuanxiangshuhe.fang.com/villa/,16000元/O,青岛市,即墨,即墨温泉一路399号（温泉一路与大田路交汇处）,120.63288,36.436073
长水山庄 ,3居|4居|5居|5居以上,234~338平米,http://changshuishanzhuang.fang.com/villa/,16000元/O,青岛市,城阳,城阳惜福镇王沙路1616号,120.56788,36.324192
阳光公园1号 ,1居|2居|3居|4居,29平米,http://gongyuan1haoyg.fang.com/,11500元/O,青岛市,城阳,城阳308国道与长城路交汇处,120.363013,36.282432
融城 ,2居|3居|4居,92~143平米,http://rongcheng0532.fang.com/,9000元/O,青岛市,胶州,胶州市兰州西路与杭州路交汇处西北角,120.001068,36.284725
100福国际山庄锦枫园 ,5居,468平米,http://jinfengyuan0532.fang.com/,12000元/O,青岛市,城阳,城阳铁骑山路10号（惜福镇附近）,120.528445,36.310274
湖尚一品 ,2居|3居|4居,129~234平米,http://hushangyipin.fang.com/,9000元/O,青岛市,胶州,胶州市兰州东路572号,120.035118,36.287044
品烁・华年 ,1居|2居|3居,131平米,http://pinshuohuanian.fang.com/,5000元/O,青岛市,莱西,莱西市姜山新城海星南路26号（海星路与泰光路交汇处）,120.58237,36.6616
伟信新城市花园 ,2居|3居,95~134平米,http://xinchengshihuayuanwx.fang.com/,价格待定,青岛市,平度,平度市广州南路18号(世纪商贸城东500米),119.998726,36.746201
裕龙润邦 ,2居|3居,87~136平米,http://yulongrunbang20532.fang.com/,6500元/O,青岛市,平度,平度市杭州南路199号（杭州路与三城路交汇处）,119.968946,36.757881
佳源都市 ,2居|3居|4居,,http://jiayuandushi0532.fang.com/,11000元/O,青岛市,即墨,即墨嵩山三路7号(即墨二十八中西侧),120.41641,36.380211
海信依云谷 ,2居|3居|4居,425~437平米,http://yiyunguhx.fang.com/,25000元/O,青岛市,城阳,城阳夏庄王沙路1号云头崮,120.446098,36.21358
碧桂园滨海城 ,1居|2居|3居|4居,48~90平米,http://shilijintanbgy.fang.com/,7500元/O,青岛市,烟台,烟台海阳海滨西路1111号（十里金沙海岸西侧）,120.225373,35.953905
安纳溪VILLA ,1居|2居|3居|4居|5居,115~234平米,http://annaxivilla.fang.com/,16500元/O,青岛市,即墨,即墨温泉镇中央别墅区（麒麟路与社生路交汇处）,120.67544,36.471291
中海森林湖 ,3居|4居|5居以上,220~730平米,http://zhonghaisenlinhu.fang.com/,10000万元/套,青岛市,胶州,胶州市少海南路3号,120.08481,36.230924
伟东湖山美地・书香郡 ,1居|2居|3居|4居,115平米,http://shuxiangjunwdhsmd.fang.com/,23000元/O,青岛市,李沧,李沧黑龙江中路482号,120.426193,36.185943
优山美墅 ,1居|2居|3居|4居|5居,292~901平米,http://youshanmeishu0532.fang.com/,26000元/O,青岛市,崂山,崂山天水路2号（金水路北侧）,120.515526,36.193185
青岛达观天下 ,2居|3居,63~96平米,http://daguantianxiaqd.fang.com/,11000元/O,青岛市,胶州,胶州市创新大道以东、湘江路5号,120.097726,36.15111
高山华府 ,1居|2居|3居,55~91平米,http://gaoshanhuafu.fang.com/,5600元/O,青岛市,胶州,胶州市洋河镇夼苑路1号（王台镇北，204国道西，夼苑路北侧）,119.9126,36.13829
宝太花园 ,2居|3居,88~110平米,http://baotaihuayuan0532.fang.com/,9250元/O,青岛市,即墨,即墨204国道即墨段121号,120.492029,36.335446
海信君汇 ,5居以上,570~770平米,http://haixinjunhui.fang.com/,100000元/O,青岛市,崂山,崂山东海东路3号（东海东路与海游路交叉口）,120.434218,36.068141
琅琊首府 ,2居|3居,83平米,http://langyashoufu.fang.com/,6200元/O,青岛市,黄岛,黄岛琅琊镇海城路22号,119.8625,35.688169
正北蔚蓝半岛 ,2居|3居,102~126平米,http://weilanbandaozb.fang.com/,11000元/O,青岛市,胶州,胶州市新城区福州南路77号,120.025329,36.276392
少海金都公馆 ,2居|3居|4居,89~213平米,http://jindugongguansh.fang.com/,9500元/O,青岛市,胶州,胶州市少海新城正阳路与少海南路交汇处（中信酒店对面）,120.092507,36.25534
隆海东方华庭 ,1居|2居|3居,94平米,http://dongfanghuatinglh.fang.com/,15000元/O,青岛市,黄岛,黄岛海港路7号（滨海大道与海港路交界处）,120.131663,35.922684
海逸天成 ,1居|2居|3居|4居,81~354平米,http://haiyitiancheng0532.fang.com/,46000元/O,青岛市,市南,市南东海西路29号（樱花园对面）,120.379447,36.06114
海泉湾港中旅公馆 ,2居|3居|4居|5居以上,86~506平米,http://gangzhonglvgongguanhqw.fang.com/,19000元/O,青岛市,即墨,即墨鳌山卫镇泉海路1号,120.692031,36.400437
智慧之城 ,2居|3居,82~160平米,http://zhihuizhicheng.fang.com/,12600元/O,青岛市,城阳,城阳惜福镇王沙路1400号（王沙路北、惜福路以西）,120.511099,36.317121
金沙滩壹号 ,1居|2居|3居|4居|5居|5居以上,53~263平米,http://jinshatanyihao.fang.com/,20000元/O,青岛市,黄岛,黄岛石雀滩路九号（石雀滩路与天目山路交汇处）,120.229572,35.954263
天泰・蓝郡 ,4居|5居以上,280~660平米,http://guosetianxiangkd.fang.com/,18000元/O,青岛市,即墨,即墨麒麟路68号（温泉镇驻地北、新兴街东侧）。,120.661142,36.460437
鲁商蓝岸丽舍 ,1居|2居|3居|5居,30~146平米,http://lananlishels.fang.com/,38000元/O,青岛市,崂山,崂山松岭路88号（青岛二中北）,120.486081,36.117895
城市阳光花园 ,2居|3居,110~113平米,http://chengshiyangguanghuayuan.fang.com/,14000元/O,青岛市,城阳,城阳流亭街道洼里社区旁,120.416805,36.270848
恒大悦珑台 ,2居|3居|4居|5居|5居以上,123~454平米,http://yuelongtaihd0532.fang.com/,13000元/O,青岛市,即墨,即墨麒麟路88号(麒麟东路和麒麟路交汇处附近）,120.66877,36.461438
中铁青岛中心8号 ,1居|2居|3居|4居,130~257平米,http://qingdaozhongxinzt.fang.com/,28000元/O,青岛市,市南,市南香港中路8号（山东路和香港中路交界处）,120.379829,36.063816
奥润熙湖华府 ,1居|3居|4居|5居,66~398平米,http://xihuhuafuar.fang.com/,5000元/O,青岛市,莱西,莱西市龙水路66号（莱西湖南岸）。,120.539288,36.869937
融创青岛湾海墅 ,5居|5居以上,422~705平米,http://linghaiyishu.fang.com/villa/,21500元/O,青岛市,即墨,即墨滨海大道188号（温泉镇滨海大道与X海路交汇处）,120.699267,36.399983
万福馨苑 ,2居|3居,101平米,http://wanfuxinyuan.fang.com/,7000元/O,青岛市,莱西,莱西市烟台路136号（长岛路与济南路交汇处）,120.515166,36.894859
逸景湾 ,1居|3居|4居|5居,280平米,http://yijingwan0532.fang.com/,价格待定,青岛市,黄岛,黄岛东港路6号（滨海大道与东港路交汇处）,120.163916,35.926775
观澜国际 ,1居|2居|3居|4居,85~142平米,http://guanlanguoji0532.fang.com/,11500元/O,青岛市,即墨,即墨长江一路88号（王家官庄村附近）,120.457431,36.368814
懿品御府・崂山二十八墅 ,1居|2居|3居|4居,425平米,http://yipinyufu.fang.com/,30000元/O,青岛市,崂山,崂山同安路898号（汽车东站东500米）,120.456419,36.118318
龙悦华庭 ,2居|3居,74平米,http://yameihuayuanyaju.fang.com/,6300元/O,青岛市,胶州,胶州市九龙镇建设路27号（九赵路南）,120.018554,36.168
德馨湖 ,2居|3居|4居,130~166平米,http://dexinlonghu.fang.com/,11500元/O,青岛市,即墨,即墨长江一路117号（石棚水库西邻）,120.457141,36.369524
温莎郡 ,2居|3居|4居,128~160平米,http://wenshajun0532.fang.com/,22000元/O,青岛市,市北,市北瑞海北路19号（瑞昌路立交桥北两公里）,120.348268,36.146834
鸿润嘉园 ,1居|2居|3居,,http://hongrunjiayuan0532.fang.com/,17000元/O,青岛市,黄岛,黄岛静江路179号（西海岸医疗中心斜对面）,120.163421,35.976337
温泉阳光 ,2居|3居|4居|5居|5居以上,80~354平米,http://wenquanyangguang.fang.com/,16500元/O,青岛市,即墨,即墨温泉镇麒麟路16号（新兴街与麒麟路交汇处）,120.655611,36.457164
胶州中央公园 ,1居|2居|3居|4居|5居,42平米,http://zhongyanggongyuandf.fang.com/,8500元/O,青岛市,胶州,胶州市云溪河畔东关大街88号（福州南路与东关大街交界处以西）,120.02225,36.28175
海怡半山 ,3居|4居|5居,211~390平米,http://haiyibanshan.fang.com/,46000元/O,青岛市,市南,市南彰化路15号（彰化路与香港中路交汇处）,120.416726,36.065007
平度上海花园 ,2居|3居|4居,109平米,http://shanghaihuayuanpd.fang.com/,6000元/O,青岛市,平度,平度市同和街道办事处新区大道519号（新区大道与高平路交叉口）,119.929226,36.750239
玫瑰庭院别墅 ,5居|5居以上,340~570平米,http://meiguitingyuan.fang.com/villa/,28000元/O,青岛市,李沧,李沧天水路18号、18号甲（清溪路、天水路与滨海大道交汇处）,120.507625,36.192856
青建・悦廷 ,3居|4居,,http://shixilingdiyueting.fang.com/,56000元/O,青岛市,崂山,崂山崂山路65号（崂山好望角西北侧）,120.532086,36.101356
平度龙宇上城 ,2居|3居,84~119平米,http://longyushangchengpd0532.fang.com/,6500元/O,青岛市,平度,平度市厦门路77号（厦门路与海尔大道交汇处）,119.983482,36.769798
梦想望城 ,3居,91~119平米,http://mengxiangwangcheng.fang.com/,价格待定,青岛市,莱西,莱西市青岛南路67号（青岛路与合肥路交汇处）,120.518754,36.827024
忠观悦府 ,2居|3居,112~131平米,http://zhongguanyuefu.fang.com/,9600元/O,青岛市,胶州,胶州市杭州路与泸州路交汇处东80米（河头源小区北门对面）,120.003266,36.276937
青特赫府二期 ,2居|3居|5居,40~154平米,http://qingtehefu.fang.com/,17000元/O,青岛市,城阳,城阳正阳路117号,120.424429,36.307236
万科桃花源 ,2居|3居|4居,82~140平米,http://taohuayuanwk.fang.com/,14500元/O,青岛市,城阳,城阳泰城路535号(万科城市花园南约300米),120.420218,36.288835
珠山秀谷・御墅 ,2居|3居|4居|5居|5居以上,186平米,http://zhushanxiuguyushu.fang.com/,价格待定,青岛市,黄岛,黄岛山川路1177号（大珠山风景区东入口正对面）,120.009692,35.797839
缦沙半岛 ,1居|2居|3居|5居|5居以上,280平米,http://manshabandao.fang.com/,45000元/O,青岛市,黄岛,黄岛金沙滩路196号（凤凰岛旅游度假区）,120.28448,35.975336
华商金地 ,2居|3居,111~126平米,http://huashangjindi.fang.com/,5500元/O,青岛市,莱西,莱西市上海路南与南京路东交汇处,120.537971,36.879308
蓝泰海乐府 ,2居|3居|4居,125平米,http://hailefult.fang.com/,14500元/O,青岛市,市北,市北瑞海北路7号（环湾大道西侧）,120.343378,36.13566
富贵新苑 ,1居|2居,79~88平米,http://fuguixinyuan.fang.com/,11000元/O,青岛市,胶州,胶州市北京东路6号,120.011385,36.263161
天一仁和・豪庭 ,2居|3居,,http://renhehaotingty.fang.com/,15000元/O,青岛市,即墨,即墨黄河三路169号（名都苑南门往西）,120.474566,36.404835
永新财富时代 ,1居|2居|3居|4居|5居,392~765平米,http://caifushidaiyx0532.fang.com/,价格待定,青岛市,平度,平度市世纪大道与规划杭州路交汇处,119.968971,36.740168
塞纳波斐 ,2居|3居|4居,92平米,http://sainabofei.fang.com/,6300元/O,青岛市,莱西,莱西市北京东路85号（北京东路与杭州路交汇处）。,120.543532,36.891447
颐海蓝湾 ,2居|3居,,http://yihailanwan.fang.com/,30000元/O,青岛市,黄岛,黄岛连江路939号（长江东路与连江路交汇处）,120.239826,35.979585
鲁信和璧花园 ,2居|3居,123~138平米,http://hebihuayuan.fang.com/,19000元/O,青岛市,即墨,即墨滨海路56号（滨海公路东）,120.673036,36.350107
鲁信随珠花园 ,3居,150~180平米,http://suizhuhuayuanlx.fang.com/,25800元/O,青岛市,黄岛,黄岛金沙滩路北侧、金山路东侧,120.264642,35.973238
中海寰宇天下 ,2居|3居|4居,143平米,http://zhongxinchengqd.fang.com/,24500元/O,青岛市,市北,市北新都心重庆南路与长沙路交汇处,120.391993,36.128193
金日唐郡 ,2居|3居|5居,176~190平米,http://jinritangjun.fang.com/,21000元/O,青岛市,城阳,城阳崇阳路152号（大北曲小学对面）,120.426092,36.29999
青岛星河湾 ,3居|4居|5居,265~692平米,http://xinghewan0532.fang.com/,25000元/O,青岛市,城阳,城阳环湾大道与滨海路交汇处向西2公里,120.335747,36.226221
北京城建龙樾湾 ,2居|3居,85~125平米,http://longyuewanbjcj0532.fang.com/,23500元/O,青岛市,李沧,李沧九水东路119号（六十四中西侧）,120.462283,36.168517
海尔地产・首府 ,2居|3居,90~139平米,http://shoufuhedc.fang.com/,6500元/O,青岛市,平度,平度市钱塘江路1号（海尔大道与长江路交汇处）,119.989069,36.774143
青特小镇 ,2居|3居|4居,108~115平米,http://qingtexiaozhen.fang.com/,15000元/O,青岛市,城阳,城阳春阳路东19号（旺疃小学以南）,120.453885,36.31672
胶州汇景花园 ,2居|3居,73平米,http://jiaozhouhuijinghuayuan.fang.com/,7000元/O,青岛市,胶州,胶州市广州路与北外环路往西200米,120.06485,36.38131
天福现河1号 ,2居|3居|4居,89~145平米,http://xianhe1haotf.fang.com/,16000元/O,青岛市,平度,平度市青岛路99号（青岛路与滨河路交汇处）,119.978076,36.779651
锦厦新城桂园 ,2居|3居,115~119平米,http://jxzczy.fang.com/,6000元/O,青岛市,平度,平度市锦州路69号（天津路与锦州路交汇处东200米）,119.937741,36.771172
学苑尚都 ,2居,90平米,http://xueyuanshangdu.fang.com/,5600元/O,青岛市,莱西,莱西市杭州南路18号（杭州路与石岛东路交汇处）,120.544514,36.86646
中航绿城理想城 ,2居|3居|4居,140平米,http://lvchenglixiangchengzh.fang.com/,13000元/O,青岛市,即墨,即墨莲花山路11号,120.545529,36.420251
新景苑 ,2居|3居,86~121平米,http://xinjingyuan0532.fang.com/,5200元/O,青岛市,胶州,胶州市胶北镇北关新疆路66号（山东道和新疆路交界处以北）,119.966399,36.315546
中铁・青岛广场 ,2居|3居,89~129平米,http://qingdaoguangchangzt.fang.com/,16000元/O,青岛市,市北,市北吴兴路139号(邻近青岛阜外医院）,120.387876,36.090022
恒诚家园 ,2居|3居,85平米,http://hengchengjiayuan.fang.com/,3700元/O,青岛市,胶州,胶州市铺集镇铺上路6号（水乡路西、中心大街南侧）,119.724654,36.129952
香江瑞城 ,1居,65平米,http://xiangjiangruicheng.fang.com/,价格待定,青岛市,黄岛,黄岛香江路南香江一路东（原三美电子厂）,120.168321,35.973109
蓝鳌路9号 ,2居|3居,85~96平米,http://dongchengmingjun0532.fang.com/,9600元/O,青岛市,即墨,即墨蓝鳌路22号（蓝鳌路与埠惜路交汇处）,120.503252,36.389726
东方时尚中心 ,1居|2居|3居|4居|5居,44~368平米,http://dongfangshishangzhongxin.fang.com/,10000元/O,青岛市,黄岛,黄岛三沙路与海军路交汇处（向东走行300米）,120.020868,35.799014
帝邦卓郡 ,1居|2居|3居|4居,137平米,http://dibangzhuojun.fang.com/,17000元/O,青岛市,黄岛,黄岛龙潭山路88号（大卢河与月亮湾路交汇处）,120.047637,35.884658
保利蔷薇公馆 ,2居|3居,102~130平米,http://qiangweigongguanbl.fang.com/,16500元/O,青岛市,城阳,城阳正阳中路与青威路交汇处,120.41502,36.30573
中仁少海澜山 ,2居|3居,135平米,http://shaohailanshanzr.fang.com/,12000元/O,青岛市,胶州,胶州市海尔大道209号(香港路口南800米),120.066287,36.243133
居之乐之 ,2居|3居,86~139平米,http://juzhilezhi.fang.com/,16300元/O,青岛市,城阳,城阳长城南路88号（长城南路与两江路交界处西南）,120.394466,36.273333
和达玺悦 ,3居|4居|5居,258~352平米,http://xiyuehd.fang.com/,27000元/O,青岛市,李沧,李沧李沧区世园大道与汉川路交汇,120.472162,36.190472
滨海1号 ,1居|2居|3居,42~52平米,http://binhai1hao0532.fang.com/,价格待定,青岛市,市北,市北瑞昌路与湖清路交汇处,120.347559,36.12524
紫悦府 ,2居|3居|4居,77~126平米,http://ziyuefu0532.fang.com/,5000元/O,青岛市,莱西,莱西市北京西路5号,120.503094,36.887045
启迪协信青岛科技城 ,1居|2居|3居,38平米,http://qingdaokejichengqdxx0532.fang.com/,14000元/O,青岛市,市北,市北舞阳路7号（近青岛科技大学市北校区）,120.38552,36.151336
万霖的花园 ,2居|3居|4居|5居,82~143平米,http://wanlindehuayuan.fang.com/,价格待定,青岛市,城阳,城阳兴阳路702号（原城中城售楼处）,120.386834,36.289113
黄岛山水嘉苑 ,2居|3居,88平米,http://shanshuijiayuanhd.fang.com/,16000元/O,青岛市,黄岛,黄岛临港街道珠光路东段650号,120.0774,35.937395
紫城御都 ,2居|3居,,http://zichengyudu.fang.com/,16000元/O,青岛市,胶州,胶州市北京东路177号,120.022967,36.264279
三龙・锦绣山庄 ,2居|3居,80~145平米,http://jinxiushanzhuangsl.fang.com/,5500元/O,青岛市,平度,平度市天津路第九中学路西,119.938581,36.798722
银丰故里 ,3居,,http://yinfengguli.fang.com/,18000元/O,青岛市,市北,市北利津路49号,120.352884,36.088462
华恒・翰林学府 ,2居|3居,83~115平米,http://hanlinxuefuhh.fang.com/,12000元/O,青岛市,黄岛,黄岛西区双珠公园西门往西200米,119.987417,35.867774
黄海悦府 ,1居|2居|4居,,http://huanghaiyuefu.fang.com/,35000元/O,青岛市,黄岛,黄岛长江路与衡山路交汇处北100米路西,120.217442,35.961248
天一仁和印象 ,2居|3居,89~103平米,http://yingangtyrh.fang.com/,14500元/O,青岛市,城阳,城阳南流路286号,120.403431,36.253855
胜通海岸 ,2居|3居,,http://shengtonghaian.fang.com/,40000元/O,青岛市,市北,市北瑞海北路37号,120.343898,36.138191
金科御苑 ,2居|3居,83~100平米,http://jinkeyuyuan0532.fang.com/,10000元/O,青岛市,胶州,胶州市温州路与科苑路交汇处（青年水库南800米）,120.03893,36.245021
瑞海・澜山 ,1居|2居|3居,65~125平米,http://ruihailanshan.fang.com/,16500元/O,青岛市,黄岛,黄岛东岳中路2717号（灵山卫枢纽站路北）,120.016128,35.889383
麦迪绅澎湃岛 ,1居,60~78平米,http://pengpaidaomds.fang.com/,16000元/O,青岛市,黄岛,黄岛兴港路13号,120.164186,35.924226
晓港名城御港湾 ,1居|2居|3居|4居,50~237平米,http://xiaogangmingcheng.fang.com/5/,16500元/O,青岛市,市北,市北小港二路81号,120.3158,36.079929
万德・悦海公馆 ,2居|3居|4居,81~205平米,http://yuehaigongguanwd.fang.com/,13500元/O,青岛市,黄岛,黄岛三沙路与科教二路交汇处,120.012493,35.812201
和达Z城・紫御 ,3居|4居|5居,141~165平米,http://jingchengziyuhd.fang.com/,25000元/O,青岛市,李沧,李沧天水路869号,120.473716,36.195381
鑫海・锦园 ,2居|3居,114平米,http://xinhaijinyuan0532.fang.com/,价格待定,青岛市,黄岛,黄岛朝阳山路与临港路交汇处,120.032544,35.90627
龙湖春江郦城 ,2居|3居,,http://chunjianglichenglh0532.fang.com/,16000元/O,青岛市,市北,市北四流南路与开封路交汇处,120.374817,36.142133
天一仁和天境 ,3居|4居,,http://tianjingtyrh.fang.com/,11500元/O,青岛市,城阳,城阳铁骑山金村水库南侧,120.4195,36.3305
卓越皇后道千山外 ,2居|3居|4居,77~144平米,http://huanghoudaozy0532.fang.com/2/,20000元/O,青岛市,李沧,李沧世园大道与汉川路交界处,120.472162,36.190472
宋城府邸 ,2居|3居|4居,145平米,http://songchengfudi.fang.com/,7600元/O,青岛市,胶州,胶州市兰州西路718号（东苑绿世界南门西行200米路南）,119.985611,36.282649
恩马墅院 ,2居|3居,87~132平米,http://enmashuyuan.fang.com/,27000元/O,青岛市,崂山,崂山滨海大道以东李宅路（高尔夫国际球场北侧）,120.497847,36.137753
泰山路99号 ,1居,62平米,http://taishanlu99hao.fang.com/,22000元/O,青岛市,市北,市北泰山路99号,120.336109,36.083255
蓝光黑钻公馆 ,3居|4居,127~240平米,http://heizuangongguanlg.fang.com/,25000元/O,青岛市,市北,市北宜昌路16号,120.340832,36.117559
磊鑫河畔阳光 ,2居|3居,80~108平米,http://leixinhepanyangguang.fang.com/,13500元/O,青岛市,城阳,城阳王沙路788-18号,120.468847,36.286984
银盛泰博观锦岸 ,3居|4居,120~145平米,http://boguanjinanyst.fang.com/,15000元/O,青岛市,胶州,胶州市北京路南、广州南路西,120.00993,36.263218
天泰时光印象 ,3居|4居,105~143平米,http://shiguangyinxiangtt.fang.com/,6000元/O,青岛市,莱西,莱西市上海路南、长岛路西,120.516736,36.877405
银盛泰・博观一品 ,3居|4居,147平米,http://boguanyipinyst.fang.com/,25000元/O,青岛市,城阳,城阳中城路以西，崇阳路以北,120.390653,36.299286
合创琨庭 ,1居|2居|3居,76平米,http://kuntinghc.fang.com/,价格待定,青岛市,黄岛,黄岛长江中路435-2号,120.186487,35.954415
海德公园 ,1居|3居|4居,38~164平米,http://haidegongyuan0535.fang.com/,价格待定,青岛市,海阳,海阳市旅游度假区济南路,119.9462,36.782881
灏景苑 ,2居|3居|5居,80~117平米,http://haojingyuan0532.fang.com/,6500元/O,青岛市,胶州,胶州市胶州西路与西外环路交汇处往北450米路东,119.933554,36.274132
宝龙大沽河艺术村 ,3居|4居,132~175平米,http://daguheyishucunbl.fang.com/,7000元/O,青岛市,胶州,胶州市少海北路10号,120.108638,36.271571
青岛罗浮观海 ,青岛罗浮观海2栋25层住宅在售,,http://luofuguanhai.fang.com/,16500元/O,青岛市,黄岛,黄岛罗浮山路123号,120.216448,35.948552
晶岳广场 ,1居,,http://jingyueguangchang.fang.com/,价格待定,青岛市,城阳,城阳上马街道岙东路西侧,120.268404,36.209828
百变60 ,1居,61平米,http://chengbox.fang.com/,19700元/O,青岛市,市北,市北新都心蚌埠路9号（蚌埠路与合肥路交界处）。,120.390512,36.119922
鸿泰・π公寓 ,1居,,http://paigongyuht.fang.com/,14000元/O,青岛市,市北,市北四流南路62号，水清沟公园对面,120.37305,36.135113
天相国际 ,1居|2居,45~1542平米,http://tianxiangguoji0532.fang.com/,14000元/O,青岛市,黄岛,黄岛珠江路以南，滨海大道以北 萧山路以西。,120.225424,35.956744
中铁华胥美邦 ,1居|2居|3居,,http://huaxumeibangzt.fang.com/,18000元/O,青岛市,城阳,城阳湘潭路9号（黑龙江路与湘潭路交汇处西500米）,120.416895,36.228464
隆海海之韵 ,1居|2居|3居,,http://haizhiyunlh.fang.com/,价格待定,青岛市,黄岛,黄岛海滨十路377号（滨海大道与海滨十路交界处以西100米）,120.016654,35.834406
天逸海湾 ,天逸海湾独栋别墅一期已售罄后期加推,,http://tianyihaiwan.fang.com/villa/,价格待定,青岛市,即墨,即墨滨海大道16号（双星度假村路南）,120.64604,36.33131
山钢地产凭海临风 ,1居|2居|3居|4居|5居,105~118平米,http://pinghailinfengsgdc.fang.com/,价格待定,青岛市,黄岛,黄岛东岳东路3677号（原泰山东路77号）　,120.144824,35.927181
山水新城 ,1居|2居|3居,81~91平米,http://shanshuixincheng.fang.com/,价格待定,青岛市,黄岛,黄岛珠山南路西（滨海二路以北的风河南岸）,120.056917,35.884196
万科青岛小镇 ,1居|2居|3居|4居|5居|5居以上,83~88平米,http://qingdaoxiaozhenwk.fang.com/,价格待定,青岛市,黄岛,黄岛前湾港路777号（大湾港路与灵海路交汇处西行约500米）,120.018274,35.911997
青岛海上嘉年华 ,2居|3居|4居|5居|5居以上,93~328平米,http://haishangjianianhuaqd.fang.com/,价格待定,青岛市,黄岛,黄岛漓江西路1166号内（唐岛湾北侧，滨海大道南侧）,120.16677,35.930774
信旭启翰苑 ,2居|3居,,http://qihanyuanxx.fang.com/,价格待定,青岛市,即墨,即墨黄河三路168号（黄河三路和营上路交汇处附近）,120.470604,36.406741
中建岭海尚溪地 ,2居|3居|4居|5居以上,,http://shangxidizjlh.fang.com/,价格待定,青岛市,即墨,即墨温泉镇岭海中路86号（岭海逸景湾东）,120.7248,36.44093
宝佳中央湖岸 ,2居|3居|4居,,http://zhongyanghuanbj.fang.com/,16000元/O,青岛市,胶州,胶州市香港东路518号（香港路体育中心以西）,120.030243,36.249966
怡景嘉苑 ,2居|3居,80~123平米,http://yijingjiayuan0532.fang.com/,价格待定,青岛市,即墨,即墨天山一路3号（天山一路与中城路交汇处，墨水河北岸）,120.390685,36.328704
科达天意华苑 ,2居|3居,,http://tianyihuayuankd.fang.com/,价格待定,青岛市,黄岛,黄岛青岛・西海岸CBD・东方影都东500米,120.045339,35.875937
白鹭湖温泉度假别墅 ,2居|5居以上,310~450平米,http://wenquanbieshublh.fang.com/,12000元/O,青岛市,莱西,莱西市沽河办事处（紧邻209国道）,120.40483,36.844381
千禧国际村二期 ,2居|3居|4居|5居,89~119平米,http://guojicunqx.fang.com/2/,价格待定,青岛市,城阳,城阳城阳区铁骑山路80号（青岛39中旁）,120.469839,36.29765
天齐天域蓝湾 ,1居|2居,,http://tianyulanwantq.fang.com/,17500元/O,青岛市,黄岛,黄岛罗浮山路227号（漓江西路与罗浮山路交汇处）,120.216976,35.951323
亿路发世家御园 ,1居|2居|3居|4居,,http://shijiayuyuan.fang.com/,14000元/O,青岛市,城阳,城阳正阳西路与龙海路交汇处,120.155596,36.257671
青岛海信依云小镇 ,2居|3居|4居|5居以上,105~210平米,http://yiyunxiaozhenhx.fang.com/,价格待定,青岛市,崂山,崂山四姜一湾片区,120.477405,36.118881
海尔御品华府 ,2居|3居,,http://yupinhuafuhe.fang.com/,价格待定,青岛市,胶州,胶州市兰州东路592号（海尔大道与兰州东路交汇处东800米路南）,120.060908,36.29179
即墨古城 ,即墨古城二期现在售合院别墅售价1000万/套起,,http://jimogucheng.fang.com/,34000元/O,青岛市,即墨,即墨顺河改造片区,120.658356,36.45114
蓝海国际 ,2居|3居,86~108平米,http://lanhaiguoji0532.fang.com/,价格待定,青岛市,即墨,即墨鹤山路868号（中国即墨服装市场往东200米）,120.418068,36.398722
隆海碧海云天 ,2居|3居|4居|5居,,http://bihaiyuntianlh.fang.com/,价格待定,青岛市,黄岛,黄岛琅琊台风景区管委会东500米,120.197772,35.960682
香溪贤庭 ,2居|3居,75~112平米,http://xiangxixianting.fang.com/,4000元/O,青岛市,胶州,胶州市铺集镇澄月路56号,119.726995,36.126772
河岸首府 ,2居|3居|4居,93~135平米,http://longtai.fang.com/,价格待定,青岛市,李沧,李沧九水路189号（银川路西侧）,120.424888,36.154244
御海首府 ,2居|3居|4居,86~177平米,http://yuhaishoufu.fang.com/,24000元/O,青岛市,黄岛,黄岛漳江路21、23号楼（青云山路与漳江路交汇处东300米）,120.218056,35.951608
青岛藏马山国际旅游度假区 ,青岛藏马山国际旅游度假区开盘时间待定,,http://cangmashanguojilvyoudujiaqu.fang.com/,价格待定,青岛市,黄岛,黄岛开城路中段（青岛藏马山国际旅游度假区）,119.765299,35.789809
华仁金都华府 ,1居|2居|3居|4居,131~155平米,http://jinduhuafuhr.fang.com/,价格待定,青岛市,城阳,城阳河东路与华中路交汇处向北300米,120.292659,36.276604
琅琊台家园 ,2居|3居,76~96平米,http://langyataijiayuan.fang.com/,价格待定,青岛市,黄岛,黄岛东岳中路1550号（原琅琊台酒厂北门）,119.997423,35.888988
海尔地产悦湖兰庭 ,2居|3居|4居,75~140平米,http://yuehulantinghe.fang.com/,价格待定,青岛市,黄岛,黄岛香江路与昆仑山路交汇处,120.150777,35.971191
保利・中央公园 ,1居|2居|3居,,http://zhongyanggongyuanbl0532.fang.com/,20000元/O,青岛市,李沧,李沧重庆路与金水路交界以东200米,120.407254,36.175547
和达Z城 ,1居|2居|3居|4居,75平米,http://hedajingcheng.fang.com/,25000元/O,青岛市,李沧,李沧宾川路88号（世园大道和汉川路交界处）,120.474784,36.191016
中泰信上景 ,2居|3居,91~102平米,http://shangjingztx.fang.com/,价格待定,青岛市,市北,市北金华路33号（金华路与新昌路交汇）。,120.361001,36.124025
锦绣河山 ,2居|3居|5居以上,,http://jinxiuheshan0532.fang.com/,价格待定,青岛市,黄岛,黄岛江山南路255号（江山南路与富春江路交汇处）,120.165772,35.957489
X海香澜郡瑜院 ,2居|3居,101~126平米,http://linghaixianglanjunyuyuan.fang.com/,价格待定,青岛市,即墨,即墨领海西路31号（温泉镇滨海大道与X海路交汇处）,120.709358,36.432322
中联依山伴城三期 ,2居|3居|4居,88~109平米,http://yishanbanchengzl.fang.com/2/,价格待定,青岛市,崂山,崂山新宏路1号,120.468989,36.144103
我家阳光1号 ,2居|3居,,http://yangguang1haowj.fang.com/,价格待定,青岛市,黄岛,黄岛大珠山中路1889号(西海岸汽车总站东北300米),120.010761,35.89262
红豆杉养生谷 ,1居|2居|3居,,http://hongdoushanyangshenggu.fang.com/,价格待定,青岛市,即墨,即墨X海西路40号（果岭二路和岭海西路交汇处）,120.709256,36.443777
海尔地产波尔多小镇 ,3居|5居|5居以上,230~300平米,http://darlingzhuangyuanhe.fang.com/,价格待定,青岛市,崂山,崂山李沙路北崂公交站附近,120.532906,36.122395
东方夏威夷 ,2居|3居,63~115平米,http://dongfangxiaweiyi0532.fang.com/,价格待定,青岛市,胶州,胶州市李哥庄镇大洋街17号（李王路与204国道交界处西500米）,120.18146,36.33717
建邦听海 ,2居|3居|4居|5居,,http://jianbangtinghai.fang.com/,价格待定,青岛市,黄岛,黄岛东岳东路4166号（灵山卫公交枢纽站北侧）,120.126717,35.919772
卓越蔚蓝群岛 ,1居|2居|3居|4居|5居,151~172平米,http://weilanqundaolaiyinanzy.fang.com/,18000元/O,青岛市,城阳,城阳双元路18号（双元路南段白沙河入海口处）,120.341714,36.262485
中筑蓝湾铭都 ,2居|3居|5居以上,86~130平米,http://lanwanmingduzz.fang.com/,价格待定,青岛市,城阳,城阳河套街道龙海路与锦海路交汇处,120.164525,36.237683
天一仁和郡 ,2居|3居,87~89平米,http://renhejunty.fang.com/,11500元/O,青岛市,即墨,即墨埠惜路762号（实验高中东侧）,120.510842,36.412361
越秀星汇蓝湾 ,2居|3居,,http://xinghuilanwanyx.fang.com/,17000元/O,青岛市,李沧,李沧晋中路79号（沧安路与安顺路交汇处）,120.375929,36.180694
亿阳金都馨城 ,2居|3居,,http://jinduxinchengyy.fang.com/,价格待定,青岛市,胶州,胶州市澳门路818号（澳门路与杭州路交汇处）,120.005425,36.253295
皇骐富贵百合园 ,2居|3居,,http://fuguibaiheyuanhq.fang.com/,价格待定,青岛市,胶州,胶州市里岔镇黄张公路563号,119.780942,36.05858
大都汇 ,1居|2居|3居,,http://daduhui0532.fang.com/,价格待定,青岛市,市北,市北九江路22号（九江路和宜丰路交汇处）,120.380372,36.129634
即发金色华山 ,2居|3居,114平米,http://jinsehuashanjf.fang.com/,5900元/O,青岛市,即墨,即墨华山镇华锦路168号,120.528688,36.526571
太泉美域 ,2居|3居|4居,83~182平米,http://taiquanmeiyu0532.fang.com/,价格待定,青岛市,平度,平度市天津路与兰州路交界处（新九中东侧）,119.942023,36.798599
领秀・珊瑚湾 ,2居|3居|4居|5居,,http://shanhuwanlx.fang.com/,价格待定,青岛市,城阳,城阳华贯路758号（华贯路与丰年路交界处）,120.30051,36.284805
中高名人国际花园 ,2居|3居,81~124平米,http://mingrenguojihuayuanzg0532.fang.com/,6000元/O,青岛市,平度,平度市人民路140号（锦绣花园西300米）,119.939403,36.79025
青岛碧桂园 ,1居|2居|3居|5居|5居以上,,http://qingdaobiguiyuan.fang.com/,价格待定,青岛市,城阳,城阳棘洪滩街道政府大楼旁,120.4195,36.3305
平都壹号院 ,2居|3居,,http://yihaoyuanpd.fang.com/,5600元/O,青岛市,平度,平度市天津路152号（杭州路西侧）,119.966424,36.79814
裕东新府 ,2居|3居|4居,,http://yudongxinfu.fang.com/,价格待定,青岛市,即墨,即墨经济开发区威海卫路10号（区盟旺山公园东侧）,120.50626,36.403915
珠山名苑二期 ,2居|3居|4居,88平米,http://zhushanmingyuan.fang.com/2/,价格待定,青岛市,黄岛,黄岛泰山路777号（泰山路与天津路交汇处）,120.048906,35.894809
深港城 ,2居|3居,86~95平米,http://shengangcheng0532.fang.com/,价格待定,青岛市,黄岛,黄岛江山南路519号（嘉陵江路与江山南路交汇处）,120.169822,35.976843
德馨海棠公馆 ,2居|3居|4居,82~147平米,http://haitanggongguandx.fang.com/,价格待定,青岛市,即墨,即墨鹤山路广电大厦对面（鹤山路与泰山一路交汇处）,120.481458,36.398359
华商金岸 ,2居|3居|4居,91平米,http://huashangjinan.fang.com/,价格待定,青岛市,莱西,莱西市上海路北与杭州路东交汇处,119.751839,35.683484
蓝海湾・卡地亚 ,2居|3居|4居,143平米,http://kadiyalhw.fang.com/,价格待定,青岛市,黄岛,黄岛世纪大道与滨海大道交汇处西路北（东方高尔夫球场西侧）,120.043438,35.851475
置信新城里 ,2居|3居,,http://xinchenglizx.fang.com/,9000元/O,青岛市,莱西,莱西市姜山新城杭州路与李朴路交汇处（荣家屯北侧）,120.543043,36.62968
安泰书香苑 ,2居|3居,86平米,http://antaishuxiangyuan.fang.com/,价格待定,青岛市,胶州,胶州市铺集镇铺集小学东50米教育中心旁（苏邱路东侧）,119.71538,36.132369
泽润世家公馆 ,1居|4居|5居,,http://shijiagongguanzr.fang.com/,价格待定,青岛市,黄岛,黄岛太行山路6号（石油大学南门东1000米）,120.1735,35.9481
华地仟佰墅 ,2居|3居|4居,131~136平米,http://qianbaishuhd.fang.com/,价格待定,青岛市,城阳,城阳黑龙江中路与白沙河路交汇处向东500米,120.415259,36.267563
沽河名邸 ,1居|2居,,http://guhemingdi.fang.com/,价格待定,青岛市,胶州,胶州市李哥庄镇小学南600米路西（香港大街南测）,120.152225,36.343822
福根美林 ,1居|2居|3居,,http://fugenmeilin.fang.com/,价格待定,青岛市,城阳,城阳靖城路（原青威路）与兴阳路交汇处,120.412582,36.288786
鑫汇水岸 ,2居,,http://xinhuishuian.fang.com/,价格待定,青岛市,城阳,城阳红岛经济区河套街道双积路南、将军花园东、前海路北,120.151557,36.221157
永嘉新居 ,1居,85~140平米,http://yongjiaxinju.fang.com/,48000元/O,青岛市,市南,市南.延吉路181、183、185号（延吉路万达CBD南侧）,120.38039,36.087095
银盛泰香江学府 ,2居|3居|4居,,http://xiangjiangxuefuyst.fang.com/,价格待定,青岛市,黄岛,黄岛香江一路108号,120.166192,35.968944
万科未来城 ,2居|3居|4居,145平米,http://wankeweilaicheng.fang.com/,14880元/O,青岛市,市北,市北四流南路与开封路交界,120.374817,36.142133
鑫坤临水宜家 ,3居,,http://linshuiyijiaxk.fang.com/,10000元/O,青岛市,胶州,胶州市新城区温州路东青年水库东,120.038803,36.269096
枫林小镇 ,3居|4居|5居|5居以上,121~154平米,http://fenglinxiaozhen0532.fang.com/villa/,12000元/O,青岛市,胶州,胶州市少海南路5号,120.078829,36.234241
中洲半岛城邦 ,2居|3居|4居,108~164平米,http://bandaochengbangzz.fang.com/,价格待定,青岛市,胶州,胶州市少海北路58号,120.079817,36.264012
海信千亩园 ,2居|3居|4居,136~219平米,http://qianmuyuanhx.fang.com/,14500元/O,青岛市,即墨,即墨温泉镇大田路2997号,120.64189,36.446547
中科青岛研发城 ,3居|4居|5居,95~330平米,http://qingdaoyanfachengzk.fang.com/,8600元/O,青岛市,城阳,城阳河东路与汇智桥路交界处,120.281036,36.275211
名人海广场 ,1居|2居|3居,,http://mingrenhaiguangchang.fang.com/,价格待定,青岛市,黄岛,黄岛长江东路397号,120.230414,35.967219
鑫江桂花园 ,2居|3居|4居,83~135平米,http://guihuayuanxj.fang.com/,价格待定,青岛市,城阳,城阳黑龙江路789号（东方城南侧）,120.427897,36.236434
海信悦华里三期 ,2居|3居,,http://yuehualihx.fang.com/3/,价格待定,青岛市,黄岛,黄岛珠江路69号,120.238742,35.970196
天泰碧玺园 ,3居|4居|5居|5居以上,240~394平米,http://bixiyuantt.fang.com/,价格待定,青岛市,城阳,城阳春城路与吉阳路交汇,120.406593,36.286185
龙湖九里公馆 ,3居|4居,,http://jiuligongguanlh.fang.com/,价格待定,青岛市,城阳,城阳双元路16号,120.327628,36.251481
越秀君悦府 ,3居,,http://junyuefuyx.fang.com/,价格待定,青岛市,黄岛,黄岛月牙河路与圣元路交汇处,120.017151,35.840229
君安嘉阳光里 ,1居|2居|3居,,http://yanguanglijaj.fang.com/,价格待定,青岛市,黄岛,黄岛铁橛山路与峰台路交汇处,119.980323,35.880275
保利西乡月 ,3居|4居,109~142平米,http://xixiangyuebl.fang.com/,14000元/O,青岛市,胶州,胶州市寺门首路与梧州路交汇处,119.993161,36.276941
海信・信特城 ,3居|4居,97~140平米,http://xintechenghx.fang.com/,价格待定,青岛市,即墨,即墨文化路与泰山一路交汇处（原华龙包装地块）,120.48232,36.380351
迪生山庄Ⅱ期 ,3居|4居,138~183平米,http://dishengshanzhuanghx.fang.com/2/,价格待定,青岛市,崂山,崂山崂山区松岭路46号,120.479478,36.102004
银盛泰德郡 ,银盛泰德郡均价为：13500元/平方米,,http://yinshengtaidejun.fang.com/,13500元/O,青岛市,城阳,城阳铁骑山路19号,120.522441,36.310142
绿地国际花都 ,3居,,http://guojihuaduld0532.fang.com/,价格待定,青岛市,黄岛,黄岛琅e台路与唐岛湾路交汇,120.005207,35.886468
天一兰悦公馆 ,3居,93~103平米,http://lanyuegongguanty.fang.com/,价格待定,青岛市,黄岛,黄岛东岳中路凤凰山路交汇处,120.024607,35.890688
融创红岛壹号院 ,3居|4居,110~172平米,http://ronggongguanrc0532.fang.com/,价格待定,青岛市,城阳,城阳河东路北、华东路东,120.315322,36.277128
润锦中央美地 ,3居|4居,108~138平米,http://zhongyangmeidirj.fang.com/,8000元/O,青岛市,平度,平度市苏州路与新区大道交汇处（新市政府西侧300米）,119.969421,36.752884
万德御景峰 ,1居|2居|3居,,http://yujingfengwd.fang.com/,价格待定,青岛市,黄岛,黄岛相公山路与珠山南路交汇处,119.984107,35.83194
青特金地汇豪观邸 ,3居|4居,,http://jdhhgdqt.fang.com/,价格待定,青岛市,城阳,城阳青岛市城阳区春阳路与国城路交汇处,120.413936,36.314637
平度景泰苑 ,2居|3居|4居|5居,88~210平米,http://jingtaiyuanpd.fang.com/,价格待定,青岛市,平度,平度市青岛路以北泰州路以西,119.972626,36.761333
清华凤凰园 ,清华凤凰园一期预计2018年下半年开盘,,http://qinghuafenghuangyuan.fang.com/,价格待定,青岛市,胶州,胶州市福州南路277号（青岛工学院东门南行300米路东）,120.02486,36.238915
金凤凰铭品 ,2居|3居|4居,75~143平米,http://jinfenghuangmingpin.fang.com/,价格待定,青岛市,黄岛,黄岛滨海大道南辅路与东环岛路交叉口,120.282551,35.974586
黑卓原筑 ,2居|3居|4居,87~145平米,http://yuanzhuhz.fang.com/,价格待定,青岛市,黄岛,黄岛东岳中路与金辉路交汇处,120.033786,35.891772
正北名城 ,2居|3居,106平米,http://zhengbeimingcheng.fang.com/,7800元/O,青岛市,胶州,胶州市广州北路与莱州路交汇处西行（九中对面）,120.007851,36.309535
金府花园 ,2居|3居,81~124平米,http://jinfuhuayuanqd.fang.com/,价格待定,青岛市,即墨,即墨金口镇莱青路与府前路交汇处(紧邻金口镇政府),120.680443,36.538985
联谊景尚蓝湾 ,2居|3居|4居,88~142平米,http://jingshanglanwanly.fang.com/,价格待定,青岛市,胶州,胶州市李哥庄镇联谊大街20号（李哥庄第二小学对面）,120.165749,36.352161
龙湖Z宸原著 ,3居|4居,90~124平米,http://jingchenyuanzhu.fang.com/,价格待定,青岛市,胶州,胶州市李王路与204国道交汇处,120.176881,36.336862
齐东翰府 ,3居,180平米,http://qidonghanfu.fang.com/,9000元/O,青岛市,平度,平度市平度市福州路北延翰林路2号,119.9829,36.794169
远洋公馆 ,3居|4居,260平米,http://yuanyanggongguan0532.fang.com/,,青岛市,市南,市南燕儿岛路23号（古田路与泉州路交汇处附近）,120.40224,36.068433
龙湖滟澜海岸澜庭 ,3居|4居,,http://lhylhalt.fang.com/,,青岛市,城阳,城阳双元路16号（白沙湾畔）,120.332309,36.253281
青岛富达国际商贸城 ,青岛富达国际商贸城22-70平商铺在售,,http://fudaguojishangmaochengqd.fang.com/,价格待定,青岛市,城阳,城阳青威路881号,120.430943,36.330396
昆泉梦时代 ,1居|2居|3居,39~73平米,http://mengshidaiguangchangtpy.fang.com/,13000元/O,青岛市,黄岛,黄岛滨海大道2888号,120.163006,35.927715
国际航运中心 ,青岛国际航运中心开盘待定,,http://guojihangyunzhongxin.fang.com/shop/,价格待定,青岛市,市北,市北连云港路66号（中央商务区东侧）。,120.382712,36.08965
鲁邦国际风情街 ,鲁邦・国际风情街现房商铺清盘在售,,http://guojifengqingjielb.fang.com/,15000元/O,青岛市,城阳,城阳正阳中路与春城路交汇处,120.408103,36.305742
恒大御澜国际 ,恒大御澜国际均价9200元/O,,http://laviegongshezs.fang.com/,9200元/O,青岛市,城阳,城阳黑龙江路与白沙河交汇处东,120.336538,36.260835
平度豪德财富商贸物流城 ,平度豪德财富商贸物流城项目均价5500元/平左右,,http://haodecaifushangmaowuliuchengpd.fang.com/,5500元/O,青岛市,平度,平度市三城路888号,119.919309,36.761306
海尔地产云街 ,1居,33~70平米,http://haieryunjie.fang.com/,14000元/O,青岛市,市北,市北重庆南路99号,120.383323,36.113742
锦江丽都 ,锦江丽都现房商铺在售,,http://jinjianglidu0532.fang.com/shop/,19000元/O,青岛市,黄岛,黄岛泰山路与泉城路交汇,120.040255,35.893403
红锦坊 ,红锦坊商铺现房在售,,http://hongjinfang.fang.com/,30000元/O,青岛市,市北,市北海岸路2号,120.349519,36.103239
和达中心城 ,和达中心城商铺在售,,http://zhongxinchenghd0532.fang.com/,30000元/O,青岛市,市北,市北哈尔滨路88号,120.39081,36.108648
青实口水街 ,1居,40~73平米,http://qingshikoushuijie.fang.com/,8500元/O,青岛市,城阳,城阳正阳中路28号,120.432065,36.305181
水清新街 ,水清新街沿街商铺在售房源不多,,http://shuiqingxinjie.fang.com/,19000元/O,青岛市,市北,市北开平路22号（水清沟公园东侧）,120.37593,36.13794
人民路商业广场 ,1居,40平米,http://renminlushangyeguangchang.fang.com/shop/,20000元/O,青岛市,市北,市北人民路283号,120.361129,36.107582
海尔地产玫瑰兰庭锦街 ,海尔地产玫瑰兰庭公寓商铺在售,,http://meiguilantingjinjiehe.fang.com/shop/,14500元/O,青岛市,市北,市北重庆南路128号（麦德龙北侧）,120.38308,36.117134
盛世豪庭 ,盛世豪庭沿街商铺在售均价40000元/平万米,,http://shengshihaotingshop.fang.com/,40000元/O,青岛市,市北,市北汉口路88号（汉口路威海路交界处）。,120.359757,36.091922
青岛国际游艇会展中心 ,青岛国际游艇会展中心在售商墅,,http://qdgjythzzx.fang.com/,29000元/O,青岛市,黄岛,黄岛滨海大道2788号,120.04996,35.875681
海创一号街区 ,5居以上,150平米,http://yihaojiequhc.fang.com/shop/,价格待定,青岛市,李沧,李沧沧安路一号,120.381111,36.180767
今易购休闲购物广场 ,易购休闲购物广场具体开盘时间待定,,http://jinyigouxiuxiangouwuguangchang.fang.com/,价格待定,青岛市,李沧,李沧振华路157号（沧口维客广场）,120.386994,36.173658
青岛欢乐海湾 ,青岛欢乐海湾价格待定,,http://huanlehaiwan0532.fang.com/,价格待定,青岛市,黄岛,黄岛海景路以东、大卢河以南,120.054506,35.8643
即墨中纺・服装城 ,即墨中纺・服装城户型建面50-200平商铺在售,,http://zhongfangfuzhuangcheng.fang.com/,22000元/O,青岛市,即墨,即墨鹤山路1699号,120.406903,36.398013
海航万邦中心 ,4居,228~310平米,http://wanbangzhongxinhh.fang.com/office/,5.5元/O,青岛市,市南,市南香港中路与延安三路交汇处,120.374262,36.06125
远雄国际广场 ,1居|2居|3居,86平米,http://yuanxiongguojiguangchang.fang.com/office/,33000元/O,青岛市,市南,市南香港中路26号 (距海200米),120.387013,36.064899
上实中心 ,上实中心项目商铺清盘在售,,http://pijiuchenggaizaoxiangmuss.fang.com/,30000元/O,青岛市,崂山,崂山香港东路195号,120.463377,36.096325
诺德广场 ,1居|2居,,http://nuodeguangchang.fang.com/office/,16000元/O,青岛市,市北,市北敦化路328号,120.381272,36.092134
青房财富地带 ,青房财富地带起价18000元/平,,http://caifudidai.fang.com/office/,18000元/O,青岛市,市北,市北连云港路13号，敦化路以北，连云港路以西。,120.380117,36.093017
卓越世纪中心二期 ,5居以上,1500平米,http://shijizhongxinzy.fang.com/office/,18500元/O,青岛市,市北,市北龙城路31号,120.37773,36.089581
华润大厦 ,1居,,http://huarunzhongxin.fang.com/office/,20000元/O,青岛市,市南,市南香港中路与山东路交汇处（青岛市市政府西侧）,120.384598,36.066158
首创・空港国际中心 ,1居,47~53平米,http://konggangguojizhongxinsc.fang.com/,11000元/O,青岛市,城阳,城阳长城南路6号,120.395408,36.266204
中铁青岛中心大厦 ,1居|3居,,http://qingdaozhongxindashazt.fang.com/office/,27000元/O,青岛市,市南,市南香港中路8号,120.379829,36.063816
西海岸壹号 ,1居|2居|3居,,http://xihaianyihao.fang.com/,9000元/O,青岛市,黄岛,黄岛珠海东路266号（黄岛区政府北）。,120.043231,35.874647
中南金石国际广场 ,1居|2居|3居|4居,,http://jinshiguojiguangchangzn.fang.com/,15000元/O,青岛市,黄岛,黄岛井冈山路157号。,120.191115,35.949882
悦澜诚品 ,1居|2居,26~88平米,http://yuelangongguan.fang.com/,18000元/O,青岛市,市北,市北镇海路7号（青岛阜外心血管病医院对面）,120.381016,36.093577
水悦城 ,2居|3居,67~136平米,http://shuiyuecheng2.fang.com/,14000元/O,青岛市,城阳,城阳正阳中路177号,120.405016,36.306069
富力・总部基地 ,富力总部基地在售带装修公寓  首付可分期,,http://guojigangzbjd.fang.com/,10000元/O,青岛市,城阳,城阳长城南路1号,120.395159,36.266669
中联自由港湾 ,1居|2居,40~78平米,http://ziyougangwan0532.fang.com/office/,17000元/O,青岛市,市北,市北新疆路8号,120.320939,36.082364
和达中心 ,和达中心城现房写字楼在售,,http://zhongxinchenghd.fang.com/,17000元/O,青岛市,市北,市北哈尔滨路88号。,120.39081,36.108648
半岛新天地 ,1居|2居|3居|4居,158平米,http://7080zhongxinguangchang.fang.com/office/,15000元/O,青岛市,市北,市北连云港路20号,120.381314,36.093358
招商局青岛网谷 ,招商局青岛网谷在售办公楼 均价7500元/O,,http://lanwanwangguzsj.fang.com/,7500元/O,青岛市,城阳,城阳双高路南，滨河路西,120.29439,36.264259
白金广场 ,1居,740~1225平米,http://baijinguangchang0532.fang.com/,22000元/O,青岛市,崂山,崂山文岭路5号,120.45006,36.113594
海信・环湾大厦 ,海信环湾大厦写字楼仅余3套,,http://huanwandashahx.fang.com/,13000元/O,青岛市,市北,市北瑞昌路226号（瑞昌路与环湾大道交汇）,120.345082,36.125995
云鼎国际 ,3居,,http://yundingguoji0532.fang.com/,9600元/O,青岛市,城阳,城阳瑞阳路99号,120.448762,36.310704
万丽国际广场 ,1居,70平米,http://guojiguangchangwl.fang.com/,12000元/O,青岛市,即墨,即墨振华街128号,120.453165,36.389327
万鑫中央广场 ,1居|2居|3居|5居|5居以上,40~636平米,http://zhongyangguangchangwx.fang.com/,13000元/O,青岛市,黄岛,黄岛政府西门、车轮山路（原宁波路）。,120.046066,35.873684
上品广场 ,上品广场项目写字楼待新推,,http://shangpinguangchang.fang.com/,价格待定,青岛市,平度,平度市长江路17号。,119.99978,36.776613
MAX商务红湾 ,MAX商务红湾在售价格为：7500元/平方米,,http://maxshangwuhongwan.fang.com/,7500元/O,青岛市,城阳,城阳广盛路和梅园路交叉口,120.272674,36.270191
丰和广场 ,1居,35~39平米,http://fengheguangchang0532.fang.com/,8000元/O,青岛市,城阳,城阳正阳东路330号,120.45066,36.303169
凯丰国际金融广场 ,1居,33~46平米,http://kaifengguojijinrongguangchang.fang.com/,13000元/O,青岛市,城阳,城阳汇智桥路88号,120.277666,36.267498
国金中心 ,国金中心项目写字楼在售均价21000元/平,,http://guojinzhongxin0532.fang.com/,21000元/O,青岛市,崂山,崂山辽阳东路与深圳路交汇处,120.449591,36.117083
索菲亚国际中心 ,索菲亚国际中心在售价格为：19000元/平方米,,http://suofeiyaguojizhongxin.fang.com/,19000元/O,青岛市,黄岛,黄岛经济技术开发区太行山路1号,120.188589,35.944281
汇通金融大厦 ,汇通金融大厦项目均价7000元/平,,http://jinrongdashaht0532.fang.com/,7000元/O,青岛市,平度,平度市青岛路与苏州路交界处。,119.961599,36.778636
航运大厦 ,5居以上,855平米,http://hangyundasha0532.fang.com/,10000元/O,青岛市,黄岛,黄岛北京路62号（海尔大道和前港湾路交汇处）,120.176127,35.984614
泰豪国际广场 ,2居|4居|5居|5居以上,157~2866平米,http://guojiguangchength.fang.com/,28000元/O,青岛市,城阳,城阳文阳路717号,120.373097,36.294806
天一仁和・财富中心 ,天一仁和财富中心目前公寓在售,,http://caifuzhongxintyrh.fang.com/,18000元/O,青岛市,城阳,城阳正阳中路166号,120.358854,36.306307
银丰晶品 ,1居,30~62平米,http://yinfengjingpin.fang.com/,18000元/O,青岛市,市北,市北辽宁路73号,120.341479,36.08329
瑞源名嘉国际 ,瑞源名嘉国际预计2018年上半年入住,,http://mingjiaguojiry.fang.com/,18000元/O,青岛市,黄岛,黄岛庐山路6号。,120.181874,35.956376
中国智谷青岛园区 ,中国智谷青岛园区均价为：8500元/平方米,,http://zgzgqdyq.fang.com/,8500元/O,青岛市,城阳,城阳汇智桥路与同顺路交汇处,120.284743,36.254387
坤唐菲尔克斯（青岛）国际酒店　 ,坤唐菲尔克斯（青岛）国际酒店清盘在售,,http://ktfeksqdgjjd.fang.com/,6400元/O,青岛市,胶州,胶州市兰州西路352号,119.996216,36.284107
信达蓝庭福邸 ,1居|2居,45~56平米,http://lantingfudixd0532.fang.com/,13000元/O,青岛市,市北,市北抚顺路33号,120.359169,36.100334
海信绍兴路66号公寓 ,1居,44~46平米,http://shaoxinglu66hao.fang.com/,13000元/O,青岛市,市北,市北绍兴路66号接待中心（新业广场南）。,120.389704,36.094591
万通财富中心 ,1居,44平米,http://caifuzhongxinwt.fang.com/office/,7500元/O,青岛市,平度,平度市人民路83号（人民路与杭州路交汇处）,119.967158,36.791134
紫荆公馆 ,1居,30~40平米,http://zijinggongguan0532.fang.com/,8000元/O,青岛市,城阳,城阳文阳路与锦城路交汇处精品海鲜市场南50米,120.377213,36.299568
荣德海岸壹号 ,荣德海岸壹号预计2018年年底整体交房,,http://haianyihaord.fang.com/,14000元/O,青岛市,黄岛,黄岛珠江路与萧山路交叉口,120.205119,35.954568
国汇金融中心 ,国汇金融中心在售价格为：15000元/平方米,,http://jinrongzhongxingh.fang.com/,15000元/O,青岛市,黄岛,黄岛长江中路487号，长江中路与庐山路交汇处，家佳源超市斜对面。,120.184446,35.952964
颐荣凯莱 ,颐荣凯莱在售价格为：13000元/平方米,,http://yirongkailai.fang.com/,13000元/O,青岛市,黄岛,黄岛月亮湾路1号,120.064925,35.890117
晶蓝公馆 ,晶蓝公馆平层公寓在售,,http://jinglangongguan2.fang.com/,18000元/O,青岛市,市北,市北延吉路221号,120.371851,36.08705
五征・财富中心 ,五征・财富中心在售价格为：10280元/平方米,,http://shouzuohlwz.fang.com/,10280元/O,青岛市,黄岛,黄岛紫金山路。,120.182025,35.964057
世茂悦海 ,1居|2居,64~96平米,http://shimaoyunding.fang.com/,16000元/O,青岛市,黄岛,黄岛海王路与海景路交汇处,120.056379,35.869996
万科中心城 ,1居,25平米,http://zhongxinchengwk20532.fang.com/,10000元/O,青岛市,城阳,城阳长城路89号,120.401753,36.288224
青岛天安数码城 ,3居|4居,128~188平米,http://shumachengqdta.fang.com/,价格待定,青岛市,城阳,城阳春阳路与荟城路交汇处,120.437044,36.314794
科创慧谷（青岛）科技园 ,科创慧谷（青岛）科技园二期B区办公在售,,http://huiguchanyeyuankc.fang.com/,7000元/O,青岛市,城阳,城阳秀园路1号,120.288688,36.267857
青岛泛海国际中心 ,青岛泛海国际中心写字楼及商铺后期出租,,http://guojigouwuzhongxinfh.fang.com/,价格待定,青岛市,市南,市南福州南路17号、27号,120.396788,36.068546
丽海广场 ,丽海广场项目预计推出写字楼时间和价格待定,,http://lihaiguangchang.fang.com/,价格待定,青岛市,崂山,崂山松岭路38号.,120.479516,36.100524
蓝湾智谷 ,蓝湾智谷规划中 新推时间待定,,http://lanwanzhigu.fang.com/,价格待定,青岛市,城阳,城阳火炬路91号,120.268759,36.259604
青岛蓝色中心 ,青岛蓝色中心产品封盘中 销售时间及价格待定,,http://lansezhongxinqd.fang.com/,价格待定,青岛市,即墨,即墨滨海大道与沙滩三路交汇处,120.717473,36.420594
山东高速・西海岸中心 ,山东高速西海岸中心商务综合体目前在售中,,http://guojihangyunzhongxinqd.fang.com/,19000元/O,青岛市,黄岛,黄岛滨海大道与武夷山路交汇处,120.190981,35.958486
4.0创业小镇 ,4.0创业小镇价格待定,,http://chuangyexiaozhen.fang.com/,价格待定,青岛市,黄岛,黄岛石寨山路1号,120.197772,35.960682
WFC协信中心 ,WFC协信中心售罄,,http://huanqiujinrongzhongxin0532.fang.com/,,青岛市,崂山,崂山秦岭路19号（苗岭路南、秦岭路西),120.468604,36.103852
青岛莱阳路8号 ,青岛莱阳路8号别墅公寓在售,,http://laiyanglu.fang.com/,70000元/O,青岛市,市南,市南莱阳路8号乙,120.330158,36.056133
新都朗悦 ,3居,116~130平米,http://xindulangyue.fang.com/,22000元/O,青岛市,市北,市北青岛市北区合肥路与台柳路交汇处（毗邻凯德）,120.395677,36.115239
福林苑三期 ,2居,114~117平米,http://fulinyuan0532.fang.com/3/,22000元/O,青岛市,李沧,李沧青山路608号，万年泉路与青山路的丁字路口交汇处,120.418,36.1465
开元御景 ,开元御景项目均价7100元/O,,http://kaiyuanyujing.fang.com/,7100元/O,青岛市,平度,平度市杭州路与朝阳路交汇处,119.949911,36.765565
恒大水晶广场 ,5居|5居以上,,http://shuijingguangchangqdhd.fang.com/,13500元/O,青岛市,黄岛,黄岛珠江路1007号。,120.1978,35.956486
集力新年华 ,2居|3居,78~123平米,http://chengshiguojijl.fang.com/,价格待定,青岛市,黄岛,黄岛长江东路区政府东800米（青岛理工大学斜对面）,120.203115,35.958412
万达・维多利亚湾 ,1居|2居|3居|4居,115~155平米,http://haigongguanwd0532.fang.com/,价格待定,青岛市,黄岛,黄岛西海岸新区同江路1号（前港湾区域东端）,120.25535,36.013838
华商金谷 ,华商金谷项目在售均价为5800元/O,,http://huashangjingu.fang.com/,5800元/O,青岛市,莱西,莱西市烟台路东与红岛路南交汇处,120.521848,36.875422
紫荆阁 ,2居|3居,83~125平米,http://zijingge.fang.com/,价格待定,青岛市,城阳,城阳海月路与新悦路交汇处,120.282695,36.245396
崂山七英里 ,崂山七英里项目开盘时间待定,,http://qiyinglils.fang.com/,价格待定,青岛市,崂山,崂山西临崂山石老人浴场、高尔夫球场，北靠石老人观光园,120.508418,36.095585
海尔地产崂山壹号院 ,海尔地产崂山壹号院新推时间待定,,http://laoshanyihaoyuanhe.fang.com/,价格待定,青岛市,崂山,崂山青岛市崂山区王哥庄港东社区3000号,120.669331,36.261184
静山悦园 ,3居|4居,150~169平米,http://jingshanyueyuan.fang.com/,40000元/O,青岛市,崂山,"崂山辽阳路以北,滨海大道以西",120.500316,36.164631
新兴・中心城 ,2居|3居|4居,95~201平米,http://zhongxinchengxx.fang.com/,价格待定,青岛市,即墨,即墨鹤山路与莲花山路交界处,120.545529,36.420251
海信花街小镇 ,海信花街小镇预计6月份首推电梯叠拼别墅,,http://huajiexiaozhen.fang.com/,价格待定,青岛市,黄岛,黄岛西海岸新区生态观光园东200米,120.068824,35.918106
兴华景园五期 ,2居|3居,87~104平米,http://xinghuajingyuan5.fang.com/,价格待定,青岛市,即墨,即墨城阳建材市场北城马路39号,120.371141,36.367168
保利・堂颂 ,3居|4居,120~160平米,http://baolitangsong.fang.com/,价格待定,青岛市,即墨,即墨华山二路17号,120.407723,36.402953
绿城留香园 ,3居|4居,176~224平米,http://liuxiangyuanlc0532.fang.com/,价格待定,青岛市,李沧,李沧金水路与铜川路交汇处,120.452391,36.17781
天一镜台山・香颂 ,天一镜台山・香颂别墅产品在售,,http://xiangsongtyjts.fang.com/,价格待定,青岛市,黄岛,黄岛镜台山南麓,120.028498,35.905119
龙湖九里晴川 ,2居|3居|4居,89~150平米,http://jiuliqingchuanlh0532.fang.com/,8000元/O,青岛市,黄岛,黄岛滨海大道旁博览城下一站,120.04996,35.875681
中德绿色公元 ,3居|4居|5居以上,140~345平米,http://lvsegongyuanzd.fang.com/,价格待定,青岛市,黄岛,黄岛中德生态园C-2组团,120.102538,36.094777
万科城市之光 ,万科城市之光价格待定,,http://chengshizhiguangwk0532.fang.com/,价格待定,青岛市,黄岛,黄岛江山路与淮河西路交汇处西100米,120.15556,36.03161
荣盛・锦绣外滩・观海阁 ,荣盛・锦绣外滩・观海阁预计2018年4月开盘,,http://jinxiuwaitanrs0532.fang.com/,价格待定,青岛市,胶州,胶州市交大大道以西，湘江路以南，创新大道以东，赣江路以北,120.094518,36.150622
越秀臻悦府 ,越秀臻悦府目前仅有商业别墅在售,,http://zhenyuefuyx.fang.com/,10000元/O,青岛市,黄岛,黄岛世纪大道以北、小台村西,119.975764,35.847446
昱苑・金岸丽景二期 ,昱苑・金岸丽景二期具体开盘时间待定,,http://jinanlijingyy.fang.com/2/,价格待定,青岛市,胶州,胶州市李哥庄迎宾大街25号,120.160803,36.348552
市北建投凤凰城 ,市北建投凤凰城价格待定,,http://fenghuangchengsbjt.fang.com/,价格待定,青岛市,市北,市北广昌路5号,120.35285,36.11994
开元盛景 ,开元城开元盛景在售小高层均价6700元/O,,http://kaiyuanshengjing0532.fang.com/,6700元/O,青岛市,平度,平度市杭州路与朝阳路交汇处,119.949911,36.765565
状元府邸 ,状元府邸项目预计2019年9月交房,,http://zhuangyuanfudi0532.fang.com/,6500元/O,青岛市,平度,平度市杭州路与朝阳路交汇处（开元城R26;开元盛景南门）,119.949911,36.765565
西海岸碧桂园・翡翠湾 ,,,http://feicuiwanbgyxha.fang.com/,价格待定,青岛市,黄岛,黄岛西海岸新区长江路与衡山路交汇处北400米,120.217442,35.961248
天泰・时光印象 ,天泰・时光印象价格待定,,http://shiguangyinxiangtt.fang.com/2/,价格待定,青岛市,胶州,胶州市南区：香港路与沈海高速交汇处 北区：上海路与规划1号路交汇处,119.956747,36.248983
融创红岛湾 ,3居|4居,142~182平米,http://hongdaowanrc.fang.com/,价格待定,青岛市,城阳,城阳羊毛滩,120.278565,36.199498
新城国际 ,新城国际仅剩少量商铺在售,,http://xinchengguoji0532.fang.com/,10000元/O,青岛市,黄岛,黄岛东岳中路1399号,120.01181,35.891577
时基萍乡悦府 ,1居,27~51平米,http://pingxiangyuefusj.fang.com/,30000元/O,青岛市,市北,市北青岛市市北区萍乡路52号,120.381099,36.12277
利群崂山购物广场 ,利群金鼎大厦写字楼在售均价30000元/平左右,,http://liqunjindingguangchang.fang.com/,30000元/O,青岛市,崂山,崂山青岛啤酒城对面，海尔路与香港东路路口,120.467941,36.098018
青岛复星天贸城 ,青岛复星天贸城占地面积3690亩开盘时间待定,,http://fxxhtmc.fang.com/,价格待定,青岛市,即墨,即墨华山二路西侧，南到长江一路。,120.411982,36.372311
青岛富都国际广场 ,青岛富都国际广场价格待定,,http://fuduguojiguangchangqd.fang.com/,价格待定,青岛市,黄岛,黄岛滨海大道东、水城中央路西,120.04996,35.875681
青岛光谷国际海洋信息港 ,青岛光谷国际海洋信息港在售写字楼,,http://ruanjianyuanqdgg.fang.com/,7100元/O,青岛市,黄岛,黄岛峨眉山路与富春江路交汇处。,120.160536,35.951921
青岛计世高科园 ,计世高科园在售办公项目均价10000元/O,,http://jsgxyqd.fang.com/,10000元/O,青岛市,城阳,城阳青岛高新区河东路377号,120.290303,36.275871
黑卓中心 ,黑卓中心在售价格为：20000元/平方米,,http://heizhuozhongxin.fang.com/,20000元/O,青岛市,黄岛,黄岛开发区庐山路65号，庐山路与珠江路交汇处,120.1868,35.94952
